[
  { "name": "City of Sydney Fire Station", "lat": -33.8752, "lng": 151.2055, "suburb": "Sydney" },
  { "name": "The Rocks Fire Station", "lat": -33.8590, "lng": 151.2090, "suburb": "The Rocks" },
  { "name": "Pyrmont Fire Station", "lat": -33.8690, "lng": 151.1930, "suburb": "Pyrmont" },
  { "name": "Alexandria Fire Station", "lat": -33.9020, "lng": 151.2000, "suburb": "Alexandria" },
  { "name": "Redfern Fire Station", "lat": -33.8930, "lng": 151.2050, "suburb": "Redfern" },
  { "name": "Glebe Fire Station", "lat": -33.8790, "lng": 151.1870, "suburb": "Glebe" },
  { "name": "Newtown Fire Station", "lat": -33.8960, "lng": 151.1790, "suburb": "Newtown" },
  { "name": "Marrickville Fire Station", "lat": -33.9110, "lng": 151.1560, "suburb": "Marrickville" },
  { "name": "Leichhardt Fire Station", "lat": -33.8830, "lng": 151.1570, "suburb": "Leichhardt" },
  { "name": "Drummoyne Fire Station", "lat": -33.8530, "lng": 151.1540, "suburb": "Drummoyne" },
  { "name": "Burwood Fire Station", "lat": -33.8770, "lng": 151.1040, "suburb": "Burwood" },
  { "name": "Ashfield Fire Station", "lat": -33.8870, "lng": 151.1260, "suburb": "Ashfield" },
  { "name": "Concord Fire Station", "lat": -33.8590, "lng": 151.1050, "suburb": "Concord" },
  { "name": "Five Dock Fire Station", "lat": -33.8660, "lng": 151.1290, "suburb": "Five Dock" },
  { "name": "Bondi Fire Station", "lat": -33.8910, "lng": 151.2650, "suburb": "Bondi" },
  { "name": "Randwick Fire Station", "lat": -33.9140, "lng": 151.2440, "suburb": "Randwick" },
  { "name": "Maroubra Fire Station", "lat": -33.9430, "lng": 151.2350, "suburb": "Maroubra" },
  { "name": "Woollahra Fire Station", "lat": -33.8860, "lng": 151.2430, "suburb": "Woollahra" },
  { "name": "Mascot Fire Station", "lat": -33.9270, "lng": 151.1930, "suburb": "Mascot" },
  { "name": "Botany Fire Station", "lat": -33.9440, "lng": 151.1970, "suburb": "Botany" },
  { "name": "North Sydney Fire Station", "lat": -33.8380, "lng": 151.2080, "suburb": "North Sydney" },
  { "name": "Crows Nest Fire Station", "lat": -33.8260, "lng": 151.2010, "suburb": "Crows Nest" },
  { "name": "Chatswood Fire Station", "lat": -33.7960, "lng": 151.1830, "suburb": "Chatswood" },
  { "name": "Lane Cove Fire Station", "lat": -33.8140, "lng": 151.1670, "suburb": "Lane Cove" },
  { "name": "Willoughby Fire Station", "lat": -33.8040, "lng": 151.1980, "suburb": "Willoughby" },
  { "name": "Mosman Fire Station", "lat": -33.8290, "lng": 151.2410, "suburb": "Mosman" },
  { "name": "Neutral Bay Fire Station", "lat": -33.8340, "lng": 151.2190, "suburb": "Neutral Bay" },
  { "name": "Manly Fire Station", "lat": -33.7960, "lng": 151.2850, "suburb": "Manly" },
  { "name": "Dee Why Fire Station", "lat": -33.7510, "lng": 151.2870, "suburb": "Dee Why" },
  { "name": "Mona Vale Fire Station", "lat": -33.6780, "lng": 151.3050, "suburb": "Mona Vale" },
  { "name": "Narrabeen Fire Station", "lat": -33.7140, "lng": 151.2970, "suburb": "Narrabeen" },
  { "name": "Avalon Fire Station", "lat": -33.6350, "lng": 151.3310, "suburb": "Avalon Beach" },
  { "name": "Forestville Fire Station", "lat": -33.7630, "lng": 151.2100, "suburb": "Forestville" },
  { "name": "Hornsby Fire Station", "lat": -33.7040, "lng": 151.0990, "suburb": "Hornsby" },
  { "name": "Berowra Fire Station", "lat": -33.6230, "lng": 151.1530, "suburb": "Berowra" },
  { "name": "Gordon Fire Station", "lat": -33.7560, "lng": 151.1520, "suburb": "Gordon" },
  { "name": "Turramurra Fire Station", "lat": -33.7320, "lng": 151.1300, "suburb": "Turramurra" },
  { "name": "St Ives Fire Station", "lat": -33.7290, "lng": 151.1680, "suburb": "St Ives" },
  { "name": "Parramatta Fire Station", "lat": -33.8160, "lng": 151.0010, "suburb": "Parramatta" },
  { "name": "Blacktown Fire Station", "lat": -33.7710, "lng": 150.9060, "suburb": "Blacktown" },
  { "name": "Penrith Fire Station", "lat": -33.7510, "lng": 150.6940, "suburb": "Penrith" },
  { "name": "Seven Hills Fire Station", "lat": -33.7740, "lng": 150.9360, "suburb": "Seven Hills" },
  { "name": "Merrylands Fire Station", "lat": -33.8330, "lng": 150.9920, "suburb": "Merrylands" },
  { "name": "Granville Fire Station", "lat": -33.8330, "lng": 151.0120, "suburb": "Granville" },
  { "name": "Auburn Fire Station", "lat": -33.8530, "lng": 151.0310, "suburb": "Auburn" },
  { "name": "Lidcombe Fire Station", "lat": -33.8640, "lng": 151.0460, "suburb": "Lidcombe" },
  { "name": "Mount Druitt Fire Station", "lat": -33.7670, "lng": 150.8190, "suburb": "Mount Druitt" },
  { "name": "St Marys Fire Station", "lat": -33.7620, "lng": 150.7720, "suburb": "St Marys" },
  { "name": "Glendenning Fire Station", "lat": -33.7450, "lng": 150.8370, "suburb": "Glendenning" },
  { "name": "Liverpool Fire Station", "lat": -33.9210, "lng": 150.9250, "suburb": "Liverpool" },
  { "name": "Campbelltown Fire Station", "lat": -34.0650, "lng": 150.8140, "suburb": "Campbelltown" },
  { "name": "Bankstown Fire Station", "lat": -33.9170, "lng": 151.0340, "suburb": "Bankstown" },
  { "name": "Fairfield Fire Station", "lat": -33.8710, "lng": 150.9560, "suburb": "Fairfield" },
  { "name": "Cabramatta Fire Station", "lat": -33.8950, "lng": 150.9370, "suburb": "Cabramatta" },
  { "name": "Ingleburn Fire Station", "lat": -34.0020, "lng": 150.8640, "suburb": "Ingleburn" },
  { "name": "Camden Fire Station", "lat": -34.0540, "lng": 150.6960, "suburb": "Camden" },
  { "name": "Hurstville Fire Station", "lat": -33.9670, "lng": 151.1010, "suburb": "Hurstville" },
  { "name": "Kogarah Fire Station", "lat": -33.9650, "lng": 151.1330, "suburb": "Kogarah" },
  { "name": "Rockdale Fire Station", "lat": -33.9530, "lng": 151.1370, "suburb": "Rockdale" },
  { "name": "Sutherland Fire Station", "lat": -34.0310, "lng": 151.0570, "suburb": "Sutherland" },
  { "name": "Miranda Fire Station", "lat": -34.0350, "lng": 151.1030, "suburb": "Miranda" },
  { "name": "Cronulla Fire Station", "lat": -34.0560, "lng": 151.1520, "suburb": "Cronulla" },
  { "name": "Engadine Fire Station", "lat": -34.0640, "lng": 151.0150, "suburb": "Engadine" },
  { "name": "Menai Fire Station", "lat": -34.0140, "lng": 151.0150, "suburb": "Menai" },
  { "name": "Castle Hill Fire Station", "lat": -33.7290, "lng": 151.0030, "suburb": "Castle Hill" },
  { "name": "Baulkham Hills Fire Station", "lat": -33.7590, "lng": 150.9920, "suburb": "Baulkham Hills" },
  { "name": "Kellyville Fire Station", "lat": -33.7020, "lng": 150.9570, "suburb": "Kellyville" },
  { "name": "Rouse Hill Fire Station", "lat": -33.6820, "lng": 150.9200, "suburb": "Rouse Hill" },
  { "name": "Canterbury Fire Station", "lat": -33.9120, "lng": 151.1180, "suburb": "Canterbury" },
  { "name": "Lakemba Fire Station", "lat": -33.9210, "lng": 151.0770, "suburb": "Lakemba" },
  { "name": "Campsie Fire Station", "lat": -33.9120, "lng": 151.1030, "suburb": "Campsie" },
  { "name": "Riverwood Fire Station", "lat": -33.9530, "lng": 151.0530, "suburb": "Riverwood" },
  { "name": "Ryde Fire Station", "lat": -33.8150, "lng": 151.1070, "suburb": "Ryde" },
  { "name": "Eastwood Fire Station", "lat": -33.7920, "lng": 151.0810, "suburb": "Eastwood" },
  { "name": "Meadowbank Fire Station", "lat": -33.8170, "lng": 151.0900, "suburb": "Meadowbank" }
]
