[
  { "name": "Royal Prince Alfred Hospital", "lat": -33.8891, "lng": 151.1813, "type": "public", "emergency": true, "suburb": "Camperdown" },
  { "name": "Westmead Hospital", "lat": -33.8038, "lng": 150.9873, "type": "public", "emergency": true, "suburb": "Westmead" },
  { "name": "Liverpool Hospital", "lat": -33.9308, "lng": 150.9282, "type": "public", "emergency": true, "suburb": "Liverpool" },
  { "name": "St Vincent's Hospital", "lat": -33.8793, "lng": 151.2230, "type": "public", "emergency": true, "suburb": "Darlinghurst" },
  { "name": "Prince of Wales Hospital", "lat": -33.9062, "lng": 151.2380, "type": "public", "emergency": true, "suburb": "Randwick" },
  { "name": "Royal North Shore Hospital", "lat": -33.8225, "lng": 151.1911, "type": "public", "emergency": true, "suburb": "St Leonards" },
  { "name": "Concord Repatriation General Hospital", "lat": -33.8401, "lng": 151.1050, "type": "public", "emergency": true, "suburb": "Concord" },
  { "name": "Bankstown-Lidcombe Hospital", "lat": -33.9189, "lng": 151.0330, "type": "public", "emergency": true, "suburb": "Bankstown" },
  { "name": "Blacktown Hospital", "lat": -33.7710, "lng": 150.9060, "type": "public", "emergency": true, "suburb": "Blacktown" },
  { "name": "Nepean Hospital", "lat": -33.7620, "lng": 150.6930, "type": "public", "emergency": true, "suburb": "Kingswood" },
  { "name": "Canterbury Hospital", "lat": -33.9101, "lng": 151.1102, "type": "public", "emergency": true, "suburb": "Campsie" },
  { "name": "Ryde Hospital", "lat": -33.8120, "lng": 151.1040, "type": "public", "emergency": true, "suburb": "Eastwood" },
  { "name": "Hornsby Ku-ring-gai Hospital", "lat": -33.7040, "lng": 151.0990, "type": "public", "emergency": true, "suburb": "Hornsby" },
  { "name": "Northern Beaches Hospital", "lat": -33.7510, "lng": 151.2170, "type": "public", "emergency": true, "suburb": "Frenchs Forest" },
  { "name": "Sutherland Hospital", "lat": -34.0440, "lng": 151.1220, "type": "public", "emergency": true, "suburb": "Caringbah" },
  { "name": "St George Hospital", "lat": -33.9670, "lng": 151.1340, "type": "public", "emergency": true, "suburb": "Kogarah" },
  { "name": "Fairfield Hospital", "lat": -33.8720, "lng": 150.9510, "type": "public", "emergency": true, "suburb": "Prairiewood" },
  { "name": "Auburn Hospital", "lat": -33.8530, "lng": 151.0310, "type": "public", "emergency": true, "suburb": "Auburn" },
  { "name": "Campbelltown Hospital", "lat": -34.0670, "lng": 150.8320, "type": "public", "emergency": true, "suburb": "Campbelltown" },
  { "name": "Sydney Children's Hospital", "lat": -33.9055, "lng": 151.2390, "type": "public", "emergency": true, "suburb": "Randwick" },
  { "name": "The Children's Hospital at Westmead", "lat": -33.8010, "lng": 150.9870, "type": "public", "emergency": true, "suburb": "Westmead" },
  { "name": "Royal Hospital for Women", "lat": -33.9050, "lng": 151.2400, "type": "public", "emergency": true, "suburb": "Randwick" },
  { "name": "Sydney Eye Hospital", "lat": -33.8710, "lng": 151.2150, "type": "public", "emergency": true, "suburb": "Sydney" },
  { "name": "Mount Druitt Hospital", "lat": -33.7710, "lng": 150.8190, "type": "public", "emergency": true, "suburb": "Mount Druitt" },
  { "name": "Camden Hospital", "lat": -34.0540, "lng": 150.6960, "type": "public", "emergency": true, "suburb": "Camden" },
  { "name": "Hawkesbury District Health Service", "lat": -33.6130, "lng": 150.8080, "type": "public", "emergency": true, "suburb": "Windsor" },
  { "name": "Manly Hospital", "lat": -33.7980, "lng": 151.2850, "type": "public", "emergency": false, "suburb": "Manly" },
  { "name": "Balmain Hospital", "lat": -33.8570, "lng": 151.1780, "type": "public", "emergency": false, "suburb": "Balmain" },
  { "name": "Calvary Health Care Sydney", "lat": -33.9680, "lng": 151.1330, "type": "public", "emergency": false, "suburb": "Kogarah" },
  { "name": "Greenwich Hospital", "lat": -33.8310, "lng": 151.1860, "type": "public", "emergency": false, "suburb": "Greenwich" },
  { "name": "War Memorial Hospital", "lat": -33.8980, "lng": 151.2550, "type": "public", "emergency": false, "suburb": "Waverley" },
  { "name": "Mater Hospital", "lat": -33.8360, "lng": 151.2060, "type": "private", "emergency": true, "suburb": "North Sydney" },
  { "name": "Macquarie University Hospital", "lat": -33.7740, "lng": 151.1150, "type": "private", "emergency": true, "suburb": "Macquarie Park" },
  { "name": "Sydney Adventist Hospital", "lat": -33.7260, "lng": 151.1150, "type": "private", "emergency": true, "suburb": "Wahroonga" },
  { "name": "North Shore Private Hospital", "lat": -33.8230, "lng": 151.1920, "type": "private", "emergency": false, "suburb": "St Leonards" },
  { "name": "Westmead Private Hospital", "lat": -33.8050, "lng": 150.9900, "type": "private", "emergency": false, "suburb": "Westmead" },
  { "name": "St Luke's Hospital", "lat": -33.8720, "lng": 151.2260, "type": "private", "emergency": false, "suburb": "Potts Point" },
  { "name": "Norwest Private Hospital", "lat": -33.7310, "lng": 150.9640, "type": "private", "emergency": false, "suburb": "Bella Vista" },
  { "name": "Strathfield Private Hospital", "lat": -33.8760, "lng": 151.0850, "type": "private", "emergency": false, "suburb": "Strathfield" },
  { "name": "Hurstville Private Hospital", "lat": -33.9630, "lng": 151.1010, "type": "private", "emergency": false, "suburb": "Hurstville" },
  { "name": "Prince of Wales Private Hospital", "lat": -33.9070, "lng": 151.2370, "type": "private", "emergency": false, "suburb": "Randwick" },
  { "name": "The Hills Private Hospital", "lat": -33.7290, "lng": 150.9940, "type": "private", "emergency": false, "suburb": "Baulkham Hills" },
  { "name": "Bondi Junction Private Hospital", "lat": -33.8920, "lng": 151.2470, "type": "private", "emergency": false, "suburb": "Bondi Junction" },
  { "name": "Lady Davidson Private Hospital", "lat": -33.7170, "lng": 151.1310, "type": "private", "emergency": false, "suburb": "North Turramurra" },
  { "name": "Lakeview Private Hospital", "lat": -33.9690, "lng": 151.1280, "type": "private", "emergency": false, "suburb": "Kogarah" },
  { "name": "Hunters Hill Private Hospital", "lat": -33.8340, "lng": 151.1460, "type": "private", "emergency": false, "suburb": "Hunters Hill" },
  { "name": "Kareena Private Hospital", "lat": -34.0430, "lng": 151.1210, "type": "private", "emergency": false, "suburb": "Caringbah" },
  { "name": "Lingard Private Hospital", "lat": -33.9330, "lng": 150.9280, "type": "private", "emergency": false, "suburb": "Merrylands" },
  { "name": "Nepean Private Hospital", "lat": -33.7600, "lng": 150.6940, "type": "private", "emergency": false, "suburb": "Kingswood" }
]
