[
  { "name": "Sydney CBD Medical Centre", "lat": -33.8708, "lng": 151.2073, "bulk_billing": true, "suburb": "Sydney" },
  { "name": "Town Hall Medical Practice", "lat": -33.8735, "lng": 151.2069, "bulk_billing": true, "suburb": "Sydney" },
  { "name": "World Square Medical Centre", "lat": -33.8770, "lng": 151.2065, "bulk_billing": true, "suburb": "Sydney" },
  { "name": "Surry Hills Medical Centre", "lat": -33.8830, "lng": 151.2110, "bulk_billing": true, "suburb": "Surry Hills" },
  { "name": "Redfern Medical Centre", "lat": -33.8920, "lng": 151.2040, "bulk_billing": true, "suburb": "Redfern" },
  { "name": "Ultimo Medical Practice", "lat": -33.8810, "lng": 151.1990, "bulk_billing": true, "suburb": "Ultimo" },
  { "name": "Chippendale Medical Centre", "lat": -33.8850, "lng": 151.1960, "bulk_billing": true, "suburb": "Chippendale" },
  { "name": "Glebe Family Medical Practice", "lat": -33.8790, "lng": 151.1870, "bulk_billing": true, "suburb": "Glebe" },
  { "name": "Marrickville Medical Centre", "lat": -33.9110, "lng": 151.1560, "bulk_billing": true, "suburb": "Marrickville" },
  { "name": "Newtown Medical Practice", "lat": -33.8970, "lng": 151.1790, "bulk_billing": true, "suburb": "Newtown" },
  { "name": "Ashfield Medical Centre", "lat": -33.8870, "lng": 151.1260, "bulk_billing": true, "suburb": "Ashfield" },
  { "name": "Burwood Medical Centre", "lat": -33.8770, "lng": 151.1040, "bulk_billing": true, "suburb": "Burwood" },
  { "name": "Strathfield Medical Practice", "lat": -33.8760, "lng": 151.0850, "bulk_billing": true, "suburb": "Strathfield" },
  { "name": "Leichhardt Medical Centre", "lat": -33.8830, "lng": 151.1570, "bulk_billing": true, "suburb": "Leichhardt" },
  { "name": "Five Dock Medical Practice", "lat": -33.8660, "lng": 151.1290, "bulk_billing": true, "suburb": "Five Dock" },
  { "name": "Concord Medical Centre", "lat": -33.8590, "lng": 151.1050, "bulk_billing": true, "suburb": "Concord" },
  { "name": "Bondi Beach Medical Centre", "lat": -33.8910, "lng": 151.2730, "bulk_billing": false, "suburb": "Bondi Beach" },
  { "name": "Bondi Junction Medical Practice", "lat": -33.8920, "lng": 151.2470, "bulk_billing": true, "suburb": "Bondi Junction" },
  { "name": "Randwick Medical Centre", "lat": -33.9140, "lng": 151.2440, "bulk_billing": true, "suburb": "Randwick" },
  { "name": "Maroubra Medical Centre", "lat": -33.9430, "lng": 151.2350, "bulk_billing": true, "suburb": "Maroubra" },
  { "name": "Coogee Medical Practice", "lat": -33.9210, "lng": 151.2560, "bulk_billing": false, "suburb": "Coogee" },
  { "name": "Kensington Medical Centre", "lat": -33.9130, "lng": 151.2280, "bulk_billing": true, "suburb": "Kensington" },
  { "name": "Double Bay Medical Practice", "lat": -33.8780, "lng": 151.2420, "bulk_billing": false, "suburb": "Double Bay" },
  { "name": "Chatswood Medical Centre", "lat": -33.7960, "lng": 151.1830, "bulk_billing": true, "suburb": "Chatswood" },
  { "name": "St Leonards Medical Practice", "lat": -33.8230, "lng": 151.1940, "bulk_billing": true, "suburb": "St Leonards" },
  { "name": "Crows Nest Medical Centre", "lat": -33.8270, "lng": 151.2010, "bulk_billing": false, "suburb": "Crows Nest" },
  { "name": "Lane Cove Medical Centre", "lat": -33.8140, "lng": 151.1670, "bulk_billing": true, "suburb": "Lane Cove" },
  { "name": "North Sydney Medical Practice", "lat": -33.8380, "lng": 151.2080, "bulk_billing": true, "suburb": "North Sydney" },
  { "name": "Neutral Bay Medical Centre", "lat": -33.8340, "lng": 151.2190, "bulk_billing": false, "suburb": "Neutral Bay" },
  { "name": "Mosman Medical Practice", "lat": -33.8290, "lng": 151.2410, "bulk_billing": false, "suburb": "Mosman" },
  { "name": "Manly Medical Centre", "lat": -33.7960, "lng": 151.2850, "bulk_billing": true, "suburb": "Manly" },
  { "name": "Dee Why Medical Centre", "lat": -33.7510, "lng": 151.2870, "bulk_billing": true, "suburb": "Dee Why" },
  { "name": "Brookvale Medical Practice", "lat": -33.7660, "lng": 151.2730, "bulk_billing": true, "suburb": "Brookvale" },
  { "name": "Mona Vale Medical Centre", "lat": -33.6780, "lng": 151.3050, "bulk_billing": true, "suburb": "Mona Vale" },
  { "name": "Narrabeen Medical Practice", "lat": -33.7140, "lng": 151.2970, "bulk_billing": true, "suburb": "Narrabeen" },
  { "name": "Hornsby Medical Centre", "lat": -33.7040, "lng": 151.0990, "bulk_billing": true, "suburb": "Hornsby" },
  { "name": "Gordon Medical Practice", "lat": -33.7560, "lng": 151.1520, "bulk_billing": false, "suburb": "Gordon" },
  { "name": "Pymble Medical Centre", "lat": -33.7440, "lng": 151.1420, "bulk_billing": false, "suburb": "Pymble" },
  { "name": "Turramurra Medical Centre", "lat": -33.7320, "lng": 151.1300, "bulk_billing": true, "suburb": "Turramurra" },
  { "name": "Wahroonga Medical Practice", "lat": -33.7180, "lng": 151.1170, "bulk_billing": false, "suburb": "Wahroonga" },
  { "name": "Parramatta Medical Centre", "lat": -33.8151, "lng": 151.0011, "bulk_billing": true, "suburb": "Parramatta" },
  { "name": "Westmead Medical Practice", "lat": -33.8040, "lng": 150.9870, "bulk_billing": true, "suburb": "Westmead" },
  { "name": "Blacktown Medical Centre", "lat": -33.7710, "lng": 150.9060, "bulk_billing": true, "suburb": "Blacktown" },
  { "name": "Penrith Medical Centre", "lat": -33.7510, "lng": 150.6940, "bulk_billing": true, "suburb": "Penrith" },
  { "name": "Mount Druitt Medical Practice", "lat": -33.7670, "lng": 150.8190, "bulk_billing": true, "suburb": "Mount Druitt" },
  { "name": "Seven Hills Medical Centre", "lat": -33.7740, "lng": 150.9360, "bulk_billing": true, "suburb": "Seven Hills" },
  { "name": "Merrylands Medical Practice", "lat": -33.8330, "lng": 150.9920, "bulk_billing": true, "suburb": "Merrylands" },
  { "name": "Granville Medical Centre", "lat": -33.8330, "lng": 151.0120, "bulk_billing": true, "suburb": "Granville" },
  { "name": "Auburn Medical Centre", "lat": -33.8530, "lng": 151.0310, "bulk_billing": true, "suburb": "Auburn" },
  { "name": "Lidcombe Medical Practice", "lat": -33.8640, "lng": 151.0460, "bulk_billing": true, "suburb": "Lidcombe" },
  { "name": "St Marys Medical Centre", "lat": -33.7620, "lng": 150.7720, "bulk_billing": true, "suburb": "St Marys" },
  { "name": "Rooty Hill Medical Practice", "lat": -33.7730, "lng": 150.8430, "bulk_billing": true, "suburb": "Rooty Hill" },
  { "name": "Liverpool Medical Centre", "lat": -33.9210, "lng": 150.9250, "bulk_billing": true, "suburb": "Liverpool" },
  { "name": "Campbelltown Medical Centre", "lat": -34.0650, "lng": 150.8140, "bulk_billing": true, "suburb": "Campbelltown" },
  { "name": "Bankstown Medical Centre", "lat": -33.9170, "lng": 151.0340, "bulk_billing": true, "suburb": "Bankstown" },
  { "name": "Fairfield Medical Practice", "lat": -33.8710, "lng": 150.9560, "bulk_billing": true, "suburb": "Fairfield" },
  { "name": "Cabramatta Medical Centre", "lat": -33.8950, "lng": 150.9370, "bulk_billing": true, "suburb": "Cabramatta" },
  { "name": "Ingleburn Medical Practice", "lat": -34.0020, "lng": 150.8640, "bulk_billing": true, "suburb": "Ingleburn" },
  { "name": "Macquarie Fields Medical Centre", "lat": -33.9840, "lng": 150.8870, "bulk_billing": true, "suburb": "Macquarie Fields" },
  { "name": "Hurstville Medical Centre", "lat": -33.9670, "lng": 151.1010, "bulk_billing": true, "suburb": "Hurstville" },
  { "name": "Kogarah Medical Practice", "lat": -33.9650, "lng": 151.1330, "bulk_billing": true, "suburb": "Kogarah" },
  { "name": "Rockdale Medical Centre", "lat": -33.9530, "lng": 151.1370, "bulk_billing": true, "suburb": "Rockdale" },
  { "name": "Sutherland Medical Centre", "lat": -34.0310, "lng": 151.0570, "bulk_billing": true, "suburb": "Sutherland" },
  { "name": "Miranda Medical Practice", "lat": -34.0350, "lng": 151.1030, "bulk_billing": true, "suburb": "Miranda" },
  { "name": "Cronulla Medical Centre", "lat": -34.0560, "lng": 151.1520, "bulk_billing": false, "suburb": "Cronulla" },
  { "name": "Engadine Medical Practice", "lat": -34.0640, "lng": 151.0150, "bulk_billing": true, "suburb": "Engadine" },
  { "name": "Castle Hill Medical Centre", "lat": -33.7290, "lng": 151.0030, "bulk_billing": true, "suburb": "Castle Hill" },
  { "name": "Baulkham Hills Medical Practice", "lat": -33.7590, "lng": 150.9920, "bulk_billing": true, "suburb": "Baulkham Hills" },
  { "name": "Bella Vista Medical Centre", "lat": -33.7370, "lng": 150.9570, "bulk_billing": true, "suburb": "Bella Vista" },
  { "name": "Rouse Hill Medical Practice", "lat": -33.6820, "lng": 150.9200, "bulk_billing": true, "suburb": "Rouse Hill" },
  { "name": "Canterbury Medical Centre", "lat": -33.9120, "lng": 151.1180, "bulk_billing": true, "suburb": "Canterbury" },
  { "name": "Lakemba Medical Practice", "lat": -33.9210, "lng": 151.0770, "bulk_billing": true, "suburb": "Lakemba" },
  { "name": "Punchbowl Medical Centre", "lat": -33.9280, "lng": 151.0530, "bulk_billing": true, "suburb": "Punchbowl" },
  { "name": "Campsie Medical Centre", "lat": -33.9120, "lng": 151.1030, "bulk_billing": true, "suburb": "Campsie" },
  { "name": "Ryde Medical Centre", "lat": -33.8150, "lng": 151.1070, "bulk_billing": true, "suburb": "Ryde" },
  { "name": "Eastwood Medical Practice", "lat": -33.7920, "lng": 151.0810, "bulk_billing": true, "suburb": "Eastwood" },
  { "name": "Macquarie Park Medical Centre", "lat": -33.7770, "lng": 151.1230, "bulk_billing": true, "suburb": "Macquarie Park" },
  { "name": "Epping Medical Centre", "lat": -33.7730, "lng": 151.0820, "bulk_billing": true, "suburb": "Epping" },
  { "name": "Carlingford Medical Practice", "lat": -33.7830, "lng": 151.0490, "bulk_billing": true, "suburb": "Carlingford" },
  { "name": "Homebush Medical Centre", "lat": -33.8660, "lng": 151.0880, "bulk_billing": true, "suburb": "Homebush" },
  { "name": "Rhodes Medical Practice", "lat": -33.8310, "lng": 151.0870, "bulk_billing": true, "suburb": "Rhodes" },
  { "name": "Petersham Medical Centre", "lat": -33.8950, "lng": 151.1550, "bulk_billing": true, "suburb": "Petersham" },
  { "name": "Summer Hill Medical Practice", "lat": -33.8910, "lng": 151.1390, "bulk_billing": true, "suburb": "Summer Hill" },
  { "name": "Dulwich Hill Medical Centre", "lat": -33.9050, "lng": 151.1390, "bulk_billing": true, "suburb": "Dulwich Hill" },
  { "name": "Revesby Medical Practice", "lat": -33.9500, "lng": 151.0130, "bulk_billing": true, "suburb": "Revesby" },
  { "name": "Padstow Medical Centre", "lat": -33.9530, "lng": 151.0340, "bulk_billing": true, "suburb": "Padstow" },
  { "name": "Sans Souci Medical Practice", "lat": -33.9860, "lng": 151.1300, "bulk_billing": true, "suburb": "Sans Souci" },
  { "name": "Menai Medical Centre", "lat": -34.0140, "lng": 151.0150, "bulk_billing": true, "suburb": "Menai" },
  { "name": "Cherrybrook Medical Practice", "lat": -33.7210, "lng": 151.0460, "bulk_billing": true, "suburb": "Cherrybrook" },
  { "name": "Kellyville Medical Centre", "lat": -33.7020, "lng": 150.9570, "bulk_billing": true, "suburb": "Kellyville" }
]
