[
  { "name": "James Ruse Agricultural High School", "lat": -33.7780, "lng": 151.0500, "type": "selective", "level": "secondary", "suburb": "Carlingford" },
  { "name": "Sydney Boys High School", "lat": -33.8920, "lng": 151.2240, "type": "selective", "level": "secondary", "suburb": "Moore Park" },
  { "name": "Sydney Girls High School", "lat": -33.8930, "lng": 151.2230, "type": "selective", "level": "secondary", "suburb": "Moore Park" },
  { "name": "North Sydney Boys High School", "lat": -33.8290, "lng": 151.2030, "type": "selective", "level": "secondary", "suburb": "Crows Nest" },
  { "name": "North Sydney Girls High School", "lat": -33.8300, "lng": 151.2020, "type": "selective", "level": "secondary", "suburb": "Crows Nest" },
  { "name": "Fort Street High School", "lat": -33.8930, "lng": 151.1540, "type": "selective", "level": "secondary", "suburb": "Petersham" },
  { "name": "Baulkham Hills High School", "lat": -33.7610, "lng": 150.9930, "type": "selective", "level": "secondary", "suburb": "Baulkham Hills" },
  { "name": "Hornsby Girls High School", "lat": -33.7030, "lng": 151.0970, "type": "selective", "level": "secondary", "suburb": "Hornsby" },
  { "name": "Girraween High School", "lat": -33.8020, "lng": 150.9420, "type": "selective", "level": "secondary", "suburb": "Girraween" },
  { "name": "Penrith High School", "lat": -33.7550, "lng": 150.7010, "type": "selective", "level": "secondary", "suburb": "Penrith" },
  { "name": "Hurstville Boys High School", "lat": -33.9620, "lng": 151.1020, "type": "selective", "level": "secondary", "suburb": "Hurstville" },
  { "name": "St George Girls High School", "lat": -33.9680, "lng": 151.1310, "type": "selective", "level": "secondary", "suburb": "Kogarah" },
  { "name": "Northern Beaches Secondary College (Manly)", "lat": -33.7950, "lng": 151.2810, "type": "selective", "level": "secondary", "suburb": "Manly" },
  { "name": "Sefton High School", "lat": -33.9070, "lng": 151.0180, "type": "selective", "level": "secondary", "suburb": "Sefton" },
  { "name": "Caringbah High School", "lat": -34.0410, "lng": 151.1230, "type": "selective", "level": "secondary", "suburb": "Caringbah" },
  { "name": "Conservatorium High School", "lat": -33.8610, "lng": 151.2140, "type": "selective", "level": "secondary", "suburb": "Sydney" },
  { "name": "Canterbury Boys High School", "lat": -33.9100, "lng": 151.1170, "type": "public", "level": "secondary", "suburb": "Canterbury" },
  { "name": "Canterbury Girls High School", "lat": -33.9110, "lng": 151.1190, "type": "public", "level": "secondary", "suburb": "Canterbury" },
  { "name": "Burwood Girls High School", "lat": -33.8830, "lng": 151.1070, "type": "public", "level": "secondary", "suburb": "Croydon" },
  { "name": "Strathfield Girls High School", "lat": -33.8770, "lng": 151.0870, "type": "public", "level": "secondary", "suburb": "Strathfield" },
  { "name": "Sydney Technical High School", "lat": -33.9490, "lng": 151.1350, "type": "public", "level": "secondary", "suburb": "Bexley" },
  { "name": "Homebush Boys High School", "lat": -33.8690, "lng": 151.0880, "type": "public", "level": "secondary", "suburb": "Homebush" },
  { "name": "Epping Boys High School", "lat": -33.7700, "lng": 151.0810, "type": "public", "level": "secondary", "suburb": "Eastwood" },
  { "name": "Cherrybrook Technology High School", "lat": -33.7190, "lng": 151.0450, "type": "public", "level": "secondary", "suburb": "Cherrybrook" },
  { "name": "Killara High School", "lat": -33.7650, "lng": 151.1630, "type": "public", "level": "secondary", "suburb": "Killara" },
  { "name": "Chatswood High School", "lat": -33.7950, "lng": 151.1810, "type": "public", "level": "secondary", "suburb": "Chatswood" },
  { "name": "Mosman High School", "lat": -33.8310, "lng": 151.2440, "type": "public", "level": "secondary", "suburb": "Mosman" },
  { "name": "Willoughby Girls High School", "lat": -33.8020, "lng": 151.1950, "type": "public", "level": "secondary", "suburb": "Willoughby" },
  { "name": "Randwick Boys High School", "lat": -33.9130, "lng": 151.2460, "type": "public", "level": "secondary", "suburb": "Randwick" },
  { "name": "Randwick Girls High School", "lat": -33.9150, "lng": 151.2440, "type": "public", "level": "secondary", "suburb": "Randwick" },
  { "name": "Marrickville High School", "lat": -33.9070, "lng": 151.1550, "type": "public", "level": "secondary", "suburb": "Marrickville" },
  { "name": "Dulwich High School of Visual Arts and Design", "lat": -33.9070, "lng": 151.1400, "type": "public", "level": "secondary", "suburb": "Dulwich Hill" },
  { "name": "Seven Hills High School", "lat": -33.7740, "lng": 150.9350, "type": "public", "level": "secondary", "suburb": "Seven Hills" },
  { "name": "Blacktown Boys High School", "lat": -33.7680, "lng": 150.9100, "type": "public", "level": "secondary", "suburb": "Blacktown" },
  { "name": "Blacktown Girls High School", "lat": -33.7700, "lng": 150.9050, "type": "public", "level": "secondary", "suburb": "Blacktown" },
  { "name": "Liverpool Boys High School", "lat": -33.9240, "lng": 150.9260, "type": "public", "level": "secondary", "suburb": "Liverpool" },
  { "name": "Liverpool Girls High School", "lat": -33.9260, "lng": 150.9240, "type": "public", "level": "secondary", "suburb": "Liverpool" },
  { "name": "Campbelltown Performing Arts High School", "lat": -34.0640, "lng": 150.8160, "type": "public", "level": "secondary", "suburb": "Campbelltown" },
  { "name": "Riverside Girls High School", "lat": -33.8420, "lng": 151.1440, "type": "public", "level": "secondary", "suburb": "Huntleys Cove" },
  { "name": "Concord High School", "lat": -33.8610, "lng": 151.1070, "type": "public", "level": "secondary", "suburb": "Concord" },
  { "name": "Macquarie Fields High School", "lat": -33.9820, "lng": 150.8880, "type": "public", "level": "secondary", "suburb": "Macquarie Fields" },
  { "name": "Ashfield Boys High School", "lat": -33.8880, "lng": 151.1270, "type": "public", "level": "secondary", "suburb": "Ashfield" },
  { "name": "Sydney Grammar School", "lat": -33.8765, "lng": 151.2132, "type": "private", "level": "secondary", "suburb": "Darlinghurst" },
  { "name": "Sydney Grammar Prep School", "lat": -33.8810, "lng": 151.2360, "type": "private", "level": "primary", "suburb": "Edgecliff" },
  { "name": "The King's School", "lat": -33.7990, "lng": 151.0080, "type": "private", "level": "k-12", "suburb": "North Parramatta" },
  { "name": "SCEGGS Darlinghurst", "lat": -33.8780, "lng": 151.2230, "type": "private", "level": "k-12", "suburb": "Darlinghurst" },
  { "name": "Scots College", "lat": -33.8780, "lng": 151.2510, "type": "private", "level": "k-12", "suburb": "Bellevue Hill" },
  { "name": "Cranbrook School", "lat": -33.8760, "lng": 151.2520, "type": "private", "level": "k-12", "suburb": "Bellevue Hill" },
  { "name": "Ascham School", "lat": -33.8810, "lng": 151.2400, "type": "private", "level": "k-12", "suburb": "Edgecliff" },
  { "name": "Newington College", "lat": -33.8930, "lng": 151.1650, "type": "private", "level": "k-12", "suburb": "Stanmore" },
  { "name": "Trinity Grammar School", "lat": -33.8920, "lng": 151.1380, "type": "private", "level": "k-12", "suburb": "Summer Hill" },
  { "name": "Barker College", "lat": -33.7040, "lng": 151.0980, "type": "private", "level": "k-12", "suburb": "Hornsby" },
  { "name": "Knox Grammar School", "lat": -33.7190, "lng": 151.1130, "type": "private", "level": "k-12", "suburb": "Wahroonga" },
  { "name": "Shore School", "lat": -33.8370, "lng": 151.2070, "type": "private", "level": "k-12", "suburb": "North Sydney" },
  { "name": "Abbotsleigh", "lat": -33.7210, "lng": 151.1140, "type": "private", "level": "k-12", "suburb": "Wahroonga" },
  { "name": "Pymble Ladies' College", "lat": -33.7430, "lng": 151.1420, "type": "private", "level": "k-12", "suburb": "Pymble" },
  { "name": "Ravenswood School for Girls", "lat": -33.7570, "lng": 151.1540, "type": "private", "level": "k-12", "suburb": "Gordon" },
  { "name": "St Aloysius' College", "lat": -33.8470, "lng": 151.2100, "type": "private", "level": "secondary", "suburb": "Milsons Point" },
  { "name": "Redlands", "lat": -33.8260, "lng": 151.2270, "type": "private", "level": "k-12", "suburb": "Cremorne" },
  { "name": "Kambala", "lat": -33.8700, "lng": 151.2690, "type": "private", "level": "k-12", "suburb": "Rose Bay" },
  { "name": "Kincoppal-Rose Bay School", "lat": -33.8690, "lng": 151.2710, "type": "private", "level": "k-12", "suburb": "Rose Bay" },
  { "name": "MLC School", "lat": -33.8800, "lng": 151.1020, "type": "private", "level": "k-12", "suburb": "Burwood" },
  { "name": "PLC Sydney", "lat": -33.8830, "lng": 151.1170, "type": "private", "level": "k-12", "suburb": "Croydon" },
  { "name": "Loreto Kirribilli", "lat": -33.8470, "lng": 151.2150, "type": "private", "level": "k-12", "suburb": "Kirribilli" },
  { "name": "Loreto Normanhurst", "lat": -33.7230, "lng": 151.0990, "type": "private", "level": "k-12", "suburb": "Normanhurst" },
  { "name": "Meriden School", "lat": -33.8740, "lng": 151.0870, "type": "private", "level": "k-12", "suburb": "Strathfield" },
  { "name": "Tangara School for Girls", "lat": -33.7270, "lng": 151.0430, "type": "private", "level": "secondary", "suburb": "Cherrybrook" },
  { "name": "Emanuel School", "lat": -33.8950, "lng": 151.2470, "type": "private", "level": "k-12", "suburb": "Randwick" },
  { "name": "Moriah College", "lat": -33.8920, "lng": 151.2520, "type": "private", "level": "k-12", "suburb": "Queens Park" },
  { "name": "Waverley College", "lat": -33.8960, "lng": 151.2530, "type": "private", "level": "secondary", "suburb": "Waverley" },
  { "name": "Queenwood School", "lat": -33.8290, "lng": 151.2450, "type": "private", "level": "k-12", "suburb": "Mosman" },
  { "name": "The Scots College Bellevue Hill (Prep)", "lat": -33.8770, "lng": 151.2530, "type": "private", "level": "primary", "suburb": "Bellevue Hill" },
  { "name": "St Joseph's College", "lat": -33.8380, "lng": 151.1410, "type": "catholic", "level": "secondary", "suburb": "Hunters Hill" },
  { "name": "Saint Ignatius' College Riverview", "lat": -33.8310, "lng": 151.1530, "type": "catholic", "level": "secondary", "suburb": "Lane Cove" },
  { "name": "De La Salle College", "lat": -33.8880, "lng": 151.1290, "type": "catholic", "level": "secondary", "suburb": "Ashfield" },
  { "name": "Marist College Eastwood", "lat": -33.7890, "lng": 151.0800, "type": "catholic", "level": "secondary", "suburb": "Eastwood" },
  { "name": "Our Lady of Mercy College", "lat": -33.8120, "lng": 151.0060, "type": "catholic", "level": "secondary", "suburb": "Parramatta" },
  { "name": "Monte Sant' Angelo Mercy College", "lat": -33.8360, "lng": 151.2080, "type": "catholic", "level": "secondary", "suburb": "North Sydney" },
  { "name": "Brigidine College", "lat": -33.7280, "lng": 151.1660, "type": "catholic", "level": "secondary", "suburb": "St Ives" },
  { "name": "Stella Maris College", "lat": -33.7920, "lng": 151.2860, "type": "catholic", "level": "secondary", "suburb": "Manly" },
  { "name": "Marist Brothers Eastwood", "lat": -33.7900, "lng": 151.0810, "type": "catholic", "level": "primary", "suburb": "Eastwood" },
  { "name": "St Mary's Cathedral College", "lat": -33.8710, "lng": 151.2130, "type": "catholic", "level": "secondary", "suburb": "Sydney" },
  { "name": "Oakhill College", "lat": -33.7370, "lng": 150.9960, "type": "catholic", "level": "secondary", "suburb": "Castle Hill" },
  { "name": "Rosebank College", "lat": -33.8590, "lng": 151.1320, "type": "catholic", "level": "secondary", "suburb": "Five Dock" },
  { "name": "St Patrick's College Strathfield", "lat": -33.8790, "lng": 151.0900, "type": "catholic", "level": "secondary", "suburb": "Strathfield" },
  { "name": "Marist College Kogarah", "lat": -33.9620, "lng": 151.1300, "type": "catholic", "level": "secondary", "suburb": "Kogarah" },
  { "name": "Holy Cross College Ryde", "lat": -33.8100, "lng": 151.1060, "type": "catholic", "level": "secondary", "suburb": "Ryde" },
  { "name": "St Andrew's Cathedral School", "lat": -33.8720, "lng": 151.2070, "type": "private", "level": "k-12", "suburb": "Sydney" },
  { "name": "International Grammar School", "lat": -33.8830, "lng": 151.1970, "type": "private", "level": "k-12", "suburb": "Ultimo" },
  { "name": "Woollahra Public School", "lat": -33.8860, "lng": 151.2430, "type": "public", "level": "primary", "suburb": "Woollahra" },
  { "name": "Neutral Bay Public School", "lat": -33.8340, "lng": 151.2190, "type": "public", "level": "primary", "suburb": "Neutral Bay" },
  { "name": "Manly West Public School", "lat": -33.7930, "lng": 151.2770, "type": "public", "level": "primary", "suburb": "Balgowlah" },
  { "name": "Artarmon Public School", "lat": -33.8110, "lng": 151.1870, "type": "public", "level": "primary", "suburb": "Artarmon" },
  { "name": "Chatswood Public School", "lat": -33.7980, "lng": 151.1830, "type": "public", "level": "primary", "suburb": "Chatswood" },
  { "name": "North Sydney Public School", "lat": -33.8380, "lng": 151.2060, "type": "public", "level": "primary", "suburb": "North Sydney" },
  { "name": "Rose Bay Public School", "lat": -33.8720, "lng": 151.2680, "type": "public", "level": "primary", "suburb": "Rose Bay" },
  { "name": "Balmain Public School", "lat": -33.8570, "lng": 151.1770, "type": "public", "level": "primary", "suburb": "Balmain" },
  { "name": "Darlinghurst Public School", "lat": -33.8790, "lng": 151.2190, "type": "public", "level": "primary", "suburb": "Darlinghurst" },
  { "name": "Cammeray Public School", "lat": -33.8230, "lng": 151.2110, "type": "public", "level": "primary", "suburb": "Cammeray" },
  { "name": "Lane Cove Public School", "lat": -33.8140, "lng": 151.1670, "type": "public", "level": "primary", "suburb": "Lane Cove" },
  { "name": "Drummoyne Public School", "lat": -33.8530, "lng": 151.1540, "type": "public", "level": "primary", "suburb": "Drummoyne" },
  { "name": "Summer Hill Public School", "lat": -33.8910, "lng": 151.1380, "type": "public", "level": "primary", "suburb": "Summer Hill" },
  { "name": "Parramatta Public School", "lat": -33.8140, "lng": 151.0030, "type": "public", "level": "primary", "suburb": "Parramatta" },
  { "name": "Castle Hill Public School", "lat": -33.7310, "lng": 151.0040, "type": "public", "level": "primary", "suburb": "Castle Hill" },
  { "name": "Cronulla Public School", "lat": -34.0570, "lng": 151.1510, "type": "public", "level": "primary", "suburb": "Cronulla" }
]
