[
  { "name": "University of Sydney (Camperdown)", "lat": -33.8882, "lng": 151.1871, "suburb": "Camperdown", "type": "public" },
  { "name": "University of Sydney (Conservatorium)", "lat": -33.8610, "lng": 151.2140, "suburb": "Sydney", "type": "public" },
  { "name": "University of Sydney (Camden)", "lat": -34.0560, "lng": 150.6960, "suburb": "Camden", "type": "public" },
  { "name": "UNSW Sydney (Kensington)", "lat": -33.9173, "lng": 151.2313, "suburb": "Kensington", "type": "public" },
  { "name": "UNSW Art & Design (Paddington)", "lat": -33.8860, "lng": 151.2280, "suburb": "Paddington", "type": "public" },
  { "name": "UNSW CBD Campus", "lat": -33.8760, "lng": 151.2050, "suburb": "Sydney", "type": "public" },
  { "name": "University of Technology Sydney (Ultimo)", "lat": -33.8833, "lng": 151.2000, "suburb": "Ultimo", "type": "public" },
  { "name": "UTS Haymarket Campus", "lat": -33.8810, "lng": 151.2020, "suburb": "Haymarket", "type": "public" },
  { "name": "Macquarie University", "lat": -33.7738, "lng": 151.1126, "suburb": "Macquarie Park", "type": "public" },
  { "name": "Western Sydney University (Parramatta South)", "lat": -33.8130, "lng": 151.0030, "suburb": "Parramatta", "type": "public" },
  { "name": "Western Sydney University (Parramatta City)", "lat": -33.8160, "lng": 151.0040, "suburb": "Parramatta", "type": "public" },
  { "name": "Western Sydney University (Campbelltown)", "lat": -34.0680, "lng": 150.8120, "suburb": "Campbelltown", "type": "public" },
  { "name": "Western Sydney University (Bankstown)", "lat": -33.9180, "lng": 151.0360, "suburb": "Bankstown", "type": "public" },
  { "name": "Western Sydney University (Penrith/Kingswood)", "lat": -33.7560, "lng": 150.7370, "suburb": "Kingswood", "type": "public" },
  { "name": "Western Sydney University (Hawkesbury)", "lat": -33.6120, "lng": 150.7490, "suburb": "Richmond", "type": "public" },
  { "name": "Western Sydney University (Liverpool)", "lat": -33.9270, "lng": 150.9230, "suburb": "Liverpool", "type": "public" },
  { "name": "Australian Catholic University (North Sydney)", "lat": -33.8390, "lng": 151.2080, "suburb": "North Sydney", "type": "public" },
  { "name": "Australian Catholic University (Strathfield)", "lat": -33.8740, "lng": 151.0940, "suburb": "Strathfield", "type": "public" },
  { "name": "Australian Catholic University (Blacktown)", "lat": -33.7680, "lng": 150.9080, "suburb": "Blacktown", "type": "public" },
  { "name": "University of Notre Dame Australia (Sydney)", "lat": -33.8840, "lng": 151.1960, "suburb": "Chippendale", "type": "private" },
  { "name": "Torrens University Australia (Sydney)", "lat": -33.8800, "lng": 151.2080, "suburb": "Surry Hills", "type": "private" },
  { "name": "ICMS (Manly)", "lat": -33.7970, "lng": 151.2870, "suburb": "Manly", "type": "private" },
  { "name": "Alphacrucis University College", "lat": -33.8130, "lng": 151.0040, "suburb": "Parramatta", "type": "private" },
  { "name": "Excelsia College", "lat": -33.7710, "lng": 151.1170, "suburb": "Macquarie Park", "type": "private" },
  { "name": "Top Education Institute (Sydney)", "lat": -33.8720, "lng": 151.2070, "suburb": "Sydney", "type": "private" },
  { "name": "Kaplan Business School (Sydney)", "lat": -33.8740, "lng": 151.2060, "suburb": "Sydney", "type": "private" },
  { "name": "Navitas (Sydney)", "lat": -33.8730, "lng": 151.2050, "suburb": "Sydney", "type": "private" },
  { "name": "Charles Sturt University (Sydney Study Centre)", "lat": -33.8690, "lng": 151.2090, "suburb": "Sydney", "type": "public" },
  { "name": "CQUniversity (Sydney)", "lat": -33.8750, "lng": 151.2070, "suburb": "Sydney", "type": "public" },
  { "name": "SAE Creative Media Institute (Sydney)", "lat": -33.8850, "lng": 151.2000, "suburb": "Ultimo", "type": "private" },
  { "name": "TAFE NSW (Ultimo)", "lat": -33.8820, "lng": 151.1980, "suburb": "Ultimo", "type": "public" },
  { "name": "TAFE NSW (St Leonards)", "lat": -33.8240, "lng": 151.1930, "suburb": "St Leonards", "type": "public" },
  { "name": "TAFE NSW (Randwick)", "lat": -33.9140, "lng": 151.2420, "suburb": "Randwick", "type": "public" },
  { "name": "TAFE NSW (Granville)", "lat": -33.8350, "lng": 151.0110, "suburb": "Granville", "type": "public" },
  { "name": "TAFE NSW (Meadowbank)", "lat": -33.8170, "lng": 151.0900, "suburb": "Meadowbank", "type": "public" }
]
